City_ID,City,Lat,Lng,Max Temp,Humidity,Cloudiness,Wind Speed,Country,Date
0,songjianghe,42.1859,127.479,19.64,17,17,3.08,CN,1683783669
1,sarkhej,22.9833,72.5,38.07,22,0,4.12,IN,1683783669
2,iqaluit,63.7506,-68.5145,-8.15,79,0,7.72,CA,1683783669
3,margaret river,-33.95,115.0667,15.99,53,99,2.24,AU,1683783670
4,punta arenas,-53.15,-70.9167,6.06,87,75,4.63,CL,1683783384
5,port-aux-francais,-49.35,70.2167,6.86,89,95,12.07,TF,1683783670
6,dunedin,-45.8742,170.5036,6.56,84,79,5.36,NZ,1683783644
7,puerto natales,-51.7236,-72.4875,6.93,88,76,2.73,CL,1683783671
8,alofi,-19.0595,-169.9187,25.94,89,9,4.12,NU,1683783672
9,bilibino,68.0546,166.4372,3.74,80,94,1.62,RU,1683783672
10,island harbour,50.724,-1.2758,11.1,93,61,0.45,GB,1683783384
11,adamstown,-25.066,-130.1015,22.01,55,100,9.74,PN,1683783672
12,uturoa,-16.7333,-151.4333,26.95,80,91,10.91,PF,1683783672
13,ujae,8.9322,165.7642,27.98,80,98,7.3,MH,1683783672
14,hawaiian paradise park,19.5933,-154.9731,22.8,89,100,0.0,US,1683783673
15,tuy hoa,13.0833,109.3,31.52,67,100,4.54,VN,1683783387
16,umluj,25.0213,37.2685,28.22,29,0,1.12,SA,1683783673
17,port augusta,-32.5,137.7667,21.01,30,34,4.64,AU,1683783673
18,waitangi,-43.9535,-176.5597,11.01,87,64,2.68,NZ,1683783673
19,whitehorse,60.7161,-135.0538,12.43,35,75,1.54,CA,1683783391
20,lebu,-37.6167,-73.65,11.83,94,80,4.14,CL,1683783673
21,udachny,66.4167,112.4,-0.86,33,76,6.82,RU,1683783673
22,kosh-agach,50.0,88.6667,12.73,40,88,2.35,RU,1683783674
23,ribeira grande,38.5167,-28.7,15.99,83,26,5.81,PT,1683783674
24,aasiaat,68.7098,-52.8699,-10.6,94,26,3.97,GL,1683783674
25,grytviken,-54.2811,-36.5092,-2.02,78,23,5.34,GS,1683783674
26,tshikapa,-6.4167,20.8,22.98,71,13,1.15,CD,1683783674
27,georgetown,5.4112,100.3354,33.96,66,20,3.6,MY,1683783600
28,blackmans bay,-43.0167,147.3167,14.85,62,26,0.9,AU,1683783674
29,remire-montjoly,4.9167,-52.2667,24.02,100,100,1.03,GF,1683783375
30,puerto ayora,-0.7393,-90.3518,25.86,97,52,0.89,EC,1683783675
31,pontes e lacerda,-15.2261,-59.3353,20.25,98,91,0.75,BR,1683783675
32,isafjordur,66.0755,-23.124,6.1,88,27,2.0,IS,1683783675
33,atafu village,-8.5421,-172.5159,29.22,78,66,8.37,TK,1683783675
34,port elizabeth,-33.918,25.5701,17.95,90,0,8.23,ZA,1683783675
35,albany,42.6001,-73.9662,11.62,65,4,1.34,US,1683783609
36,nieuw amsterdam,5.8833,-55.0833,25.01,93,99,1.2,SR,1683783676
37,avarua,-21.2078,-159.775,25.03,78,75,6.69,CK,1683783676
38,rongelap,11.1635,166.8941,26.64,85,100,6.79,MH,1683783676
39,tazovsky,67.4667,78.7,-10.94,87,31,5.43,RU,1683783398
40,takoradi,4.8845,-1.7554,26.81,84,100,3.6,GH,1683783676
41,camana,-16.6228,-72.7111,18.89,86,40,3.34,PE,1683783676
42,west island,-12.1568,96.8225,29.99,79,40,9.77,CC,1683783676
43,stanley,54.868,-1.6985,9.29,93,0,1.03,GB,1683783677
44,ilulissat,69.2167,-51.1,-1.99,69,100,5.14,GL,1683783677
45,zouerate,22.7187,-12.4521,27.41,26,43,2.74,MR,1683783677
46,bethel,41.3712,-73.414,12.31,79,0,0.0,US,1683783677
47,jumla,29.2747,82.1838,18.57,30,45,2.86,NP,1683783543
48,edinburgh of the seven seas,-37.0676,-12.3116,15.02,66,100,9.01,SH,1683783677
49,mount pearl,47.5166,-52.7813,1.19,90,40,8.75,CA,1683783677
50,ancud,-41.8697,-73.8203,12.75,97,97,4.01,CL,1683783678
51,acarau,-2.8856,-40.12,25.24,87,22,3.62,BR,1683783678
52,talnakh,69.4865,88.3972,-12.66,84,13,5.77,RU,1683783678
53,aldinga beach,-35.2793,138.4604,20.7,62,49,5.87,AU,1683783678
54,ola,59.5833,151.2833,2.76,77,28,3.92,RU,1683783678
55,klyuchi,52.2667,79.1667,26.51,29,94,9.98,RU,1683783678
56,bakchar,57.0186,82.0711,11.65,43,100,3.4,RU,1683783678
57,mitu,1.1983,-70.1733,21.63,100,100,0.39,CO,1683783679
58,tiksi,71.6872,128.8694,-9.54,75,49,12.69,RU,1683783679
59,zyryanskoye,56.8306,86.6258,13.2,29,99,2.71,RU,1683783679
60,peace river,56.2501,-117.286,12.17,62,20,1.54,CA,1683783624
61,hermanus,-34.4187,19.2345,13.78,90,85,5.39,ZA,1683783679
62,quellon,-43.1167,-73.6167,13.14,100,75,2.06,CL,1683783679
63,port mathurin,-19.6833,63.4167,25.5,74,90,8.89,MU,1683783679
64,kaa-khem,51.6833,94.7333,13.28,25,24,1.64,RU,1683783680
65,magumeri,12.1131,12.8274,28.71,34,89,4.03,NG,1683783680
66,ushuaia,-54.8,-68.3,11.81,54,40,4.63,AR,1683783680
67,brisas de zicatela,15.8369,-97.0419,28.25,73,54,4.84,MX,1683783680
68,kalmunai,7.4167,81.8167,30.68,66,99,2.0,LK,1683783680
69,constantia,44.1833,28.65,12.61,61,0,4.43,RO,1683783680
70,chichiriviche,10.9333,-68.2772,25.57,87,100,4.34,VE,1683783681
71,petropavlovsk-kamchatsky,53.0452,158.6483,4.33,60,75,3.0,RU,1683783681
72,paciran,-6.8767,112.3761,26.2,88,94,1.95,ID,1683783681
73,fale old settlement,-9.3852,-171.2468,29.32,76,7,7.42,TK,1683783681
74,magadan,59.5667,150.8,2.95,76,19,3.31,RU,1683783681
75,turkmenbasy,40.0222,52.9552,22.43,46,0,2.06,TM,1683783681
76,invercargill,-46.4,168.35,8.34,95,91,1.34,NZ,1683783681
77,buka,40.8108,69.1986,32.31,11,85,0.93,UZ,1683783682
78,lagdo,9.05,13.7333,30.68,42,92,1.68,CM,1683783682
79,san carlos del zulia,9.0,-71.9135,25.38,85,100,2.09,VE,1683783682
80,jamestown,42.097,-79.2353,8.8,80,0,3.6,US,1683783598
81,hargeysa,9.56,44.065,24.86,58,67,8.93,SO,1683783682
82,jalai nur,49.45,117.7,18.02,38,100,5.87,CN,1683783682
83,esmeraldas,-19.7625,-44.3139,18.48,90,95,1.33,BR,1683783683
84,dudinka,69.4058,86.1778,-12.43,87,53,6.42,RU,1683783683
85,qaqortoq,60.7167,-46.0333,1.73,91,100,1.89,GL,1683783683
86,bubaque,11.2833,-15.8333,26.86,68,100,5.63,GW,1683783683
87,la passe,45.5549,-0.8967,11.66,84,47,4.27,FR,1683783683
88,bredasdorp,-34.5322,20.0403,15.1,89,88,6.09,ZA,1683783683
89,wladyslawowo,54.7909,18.4009,14.12,67,17,7.22,PL,1683783705
90,happy valley-goose bay,53.3168,-60.3315,-0.83,64,75,2.06,CA,1683783705
91,kalpatta,11.6106,76.0822,30.31,57,87,1.73,IN,1683783705
92,angat,14.9333,121.0333,32.12,58,93,1.95,PH,1683783706
93,cooper's town,26.8667,-77.5167,24.82,67,0,4.65,BS,1683783706
94,tolanaro,-25.0319,46.9987,23.04,88,40,5.14,MG,1683783706
95,khomeyn,33.6423,50.0789,19.34,19,36,2.23,IR,1683783706
96,bonthe,7.5264,-12.505,26.68,79,96,1.25,SL,1683783706
97,longyearbyen,78.2186,15.6401,0.91,86,75,4.12,SJ,1683783706
98,aban,56.67,96.06,11.88,25,17,2.8,RU,1683783707
99,hakha,22.65,93.6167,30.23,18,41,0.43,MM,1683783707
100,thompson,55.7435,-97.8558,9.09,100,20,3.6,CA,1683783707
101,st. john's,47.5649,-52.7093,1.65,90,40,8.75,CA,1683783540
102,garden city,42.3256,-83.331,15.66,75,20,0.0,US,1683783707
103,cill airne,52.05,-9.5167,9.59,94,59,3.71,IE,1683783707
104,papatowai,-46.5619,169.4708,9.79,79,94,6.73,NZ,1683783707
105,nuuk,64.1835,-51.7216,1.34,100,100,4.12,GL,1683783708
106,keflavik,64.0049,-22.5624,6.95,100,100,3.09,IS,1683783708
107,el porvenir,13.7617,-87.3458,25.63,82,83,0.84,HN,1683783708
108,camiri,-20.05,-63.5167,15.77,91,99,0.97,BO,1683783708
109,promyshlennaya,54.9159,85.6385,12.53,36,100,2.91,RU,1683783708
110,gamba,-2.65,10.0,25.06,92,88,1.27,GA,1683783708
111,wulingyuan,29.3494,110.5441,20.72,69,98,0.79,CN,1683783708
112,fortuna,40.5982,-124.1573,12.03,95,100,1.54,US,1683783708
113,wailua homesteads,22.0669,-159.378,23.24,85,100,5.66,US,1683783709
114,puerto baquerizo moreno,-0.9,-89.6,25.93,88,93,3.76,EC,1683783709
115,olonkinbyen,70.9221,-8.7187,0.33,98,100,6.47,SJ,1683783709
116,lata,40.1629,-8.3327,10.6,90,8,2.02,PT,1683783709
117,illizi,26.4833,8.4667,21.17,32,21,4.11,DZ,1683783709
118,fatehpur,25.9333,80.8,39.51,6,0,4.37,IN,1683783709
119,cam ranh,11.9214,109.1591,33.98,55,20,6.17,VN,1683783710
120,plastun,44.7561,136.2939,12.31,61,48,3.59,RU,1683783710
121,vila franca do campo,37.7167,-25.4333,16.23,87,63,2.21,PT,1683783710
122,menongue,-14.6585,17.691,15.19,52,12,1.68,AO,1683783710
123,oranjemund,-28.55,16.4333,12.58,98,100,3.14,NA,1683783710
124,boajibu,8.1833,-11.3333,24.03,88,100,0.8,SL,1683783710
125,mongu,-15.2484,23.1274,17.33,46,5,2.7,ZM,1683783711
126,malango,-2.9627,119.9001,28.96,63,68,1.45,ID,1683783711
127,san patricio,28.017,-97.5169,26.97,94,21,5.16,US,1683783711
128,ierapetra,35.01,25.7353,18.41,68,90,5.81,GR,1683783711
129,callao,-12.0667,-77.15,21.51,78,100,3.09,PE,1683783711
130,manokwari,-0.8667,134.0833,27.97,79,83,2.3,ID,1683783711
131,kapuskasing,49.4169,-82.4331,7.05,81,75,1.54,CA,1683783712
132,vorgashor,67.5833,63.95,-6.17,87,75,1.78,RU,1683783712
133,college,64.8569,-147.8028,15.18,40,75,2.06,US,1683783712
134,chonchi,-42.6128,-73.8092,12.84,99,72,1.1,CL,1683783712
135,vadso,70.0744,29.7487,6.49,81,75,5.14,NO,1683783712
136,bagli,22.65,76.35,39.22,6,1,1.86,IN,1683783712
137,zhoushan,30.0108,122.2047,17.25,69,98,2.8,CN,1683783712
138,isla mujeres,21.2311,-86.731,28.03,83,0,5.5,MX,1683783713
139,new norfolk,-42.7826,147.0587,15.51,56,40,0.22,AU,1683783713
140,sorong,-0.8833,131.25,28.47,75,95,2.85,ID,1683783713
141,lae,-6.7221,146.9847,28.48,76,44,3.53,PG,1683783713
142,santa maria,-29.6842,-53.8069,8.61,100,0,0.0,BR,1683783713
143,norderney,53.7,7.15,9.99,97,100,3.54,DE,1683783713
144,port alfred,-33.5906,26.891,18.78,73,0,7.3,ZA,1683783714
145,gilgit,35.9221,74.3087,17.92,23,0,1.05,PK,1683783714
146,nar'yan-mar,67.6713,53.087,-0.11,86,66,5.0,RU,1683783714
147,bereznik,62.8551,42.7072,14.58,52,72,2.46,RU,1683783714
148,christchurch,-43.5333,172.6333,9.39,62,20,3.6,NZ,1683783565
149,yellowknife,62.456,-114.3525,8.29,53,20,2.06,CA,1683783689
150,kidal,18.4411,1.4078,28.46,12,84,4.98,ML,1683783715
151,kruisfontein,-34.0033,24.7314,13.27,79,23,7.16,ZA,1683783715
152,enewetak,11.3474,162.3373,27.72,82,90,6.12,MH,1683783715
153,luwuk,-0.9516,122.7875,29.24,76,93,1.33,ID,1683783716
154,laojunmiao,39.8333,97.7333,16.62,13,37,7.14,CN,1683783716
155,ambon,-3.6954,128.1814,30.08,95,40,2.57,ID,1683783503
156,strugi-krasnyye,58.2675,29.1114,14.68,40,31,0.58,RU,1683783716
157,wagar,16.1525,36.2032,33.2,18,47,4.07,SD,1683783716
158,kone,-21.0595,164.8658,23.39,69,99,3.27,NC,1683783717
159,jayapura,-2.5333,140.7,31.66,83,100,1.76,ID,1683783717
160,badger,64.8,-147.5333,15.14,28,75,2.06,US,1683783717
161,laguna,38.421,-121.4238,13.75,77,0,3.6,US,1683783717
162,aykhal,66.0,111.5,-2.43,78,71,7.34,RU,1683783717
163,tralee,52.2704,-9.7026,9.99,94,31,6.24,IE,1683783717
164,taoudenni,22.6783,-3.9836,29.08,16,99,4.49,ML,1683783718
165,karratha,-20.7377,116.8463,28.95,22,20,7.15,AU,1683783718
166,kodiak,57.79,-152.4072,5.73,93,100,6.69,US,1683783633
167,nemuro,43.3236,145.575,4.62,76,68,6.1,JP,1683783718
168,dongsheng,39.8161,109.9776,17.87,16,63,9.9,CN,1683783718
169,bandarbeyla,9.4942,50.8122,30.99,61,100,2.25,SO,1683783718
170,bardai,11.65,7.2333,25.5,61,94,6.15,NG,1683783719
171,prince albert,53.2001,-105.7677,6.97,76,20,4.63,CA,1683783719
172,port douglas,-16.4833,145.4667,25.27,68,55,6.16,AU,1683783719
173,taro,-8.3862,115.28,26.03,84,71,0.75,ID,1683783719
174,yorkton,51.2167,-102.4677,13.91,58,20,4.12,CA,1683783719
175,floro,61.5996,5.0328,11.04,87,75,0.0,NO,1683783719
176,balikpapan,-1.2675,116.8289,30.55,79,20,2.57,ID,1683783719
177,susuman,62.7833,148.1667,7.85,54,34,5.91,RU,1683783720
178,neryungri,56.6709,124.6491,12.63,62,100,3.36,RU,1683783720
179,ta`u,-14.2336,-169.5144,27.64,71,10,7.02,AS,1683783720
180,mineiros,-17.5694,-52.5511,16.66,83,78,0.9,BR,1683783720
181,iskateley,67.6803,53.1512,-0.18,86,67,4.97,RU,1683783720
182,broken hill,-31.95,141.4333,19.19,29,0,2.28,AU,1683783720
183,hadibu,12.65,54.0333,29.75,58,57,0.49,YE,1683783720
184,tonj,7.2737,28.6822,28.89,55,83,2.27,SS,1683783721
185,galeras,9.161,-75.0481,25.06,85,99,1.72,CO,1683783721
186,mil'kovo,55.6078,37.7956,15.79,52,65,2.45,RU,1683783721
187,kuraymah,18.55,31.85,34.18,6,13,5.81,SD,1683783721
188,canzo,45.8495,9.2772,12.08,93,100,0.45,IT,1683783721
189,agaro,7.85,36.65,19.05,90,100,0.64,ET,1683783721
190,fort bragg,35.139,-79.006,17.12,82,0,0.0,US,1683783722
191,tarko-sale,64.9225,77.785,-4.93,78,100,7.89,RU,1683783722
192,balkanabat,39.5108,54.3671,23.64,43,4,1.92,TM,1683783722
193,sidi ifni,29.3797,-10.173,18.7,85,5,3.08,MA,1683783722
194,tromso,69.6496,18.957,6.88,93,75,2.06,NO,1683783722
195,la tuque,47.4334,-72.7824,6.14,70,23,0.0,CA,1683783722
196,kristiansund,63.1115,7.732,10.03,93,75,0.0,NO,1683783722
197,nova xavantina,-14.6667,-52.35,20.15,75,86,1.2,BR,1683783606
198,ulanhot,46.0833,122.0833,23.72,18,100,8.77,CN,1683783561
199,doiwala,30.1833,78.1167,29.33,28,9,1.54,IN,1683783723
200,hamilton,39.1834,-84.5333,16.43,72,0,0.0,US,1683783264
201,geraldton,-28.7667,114.6,21.23,35,2,5.66,AU,1683783723
202,beau vallon,-20.4189,57.6953,25.13,88,75,3.6,MU,1683783723
203,ust-nera,64.5667,143.2,6.9,55,69,3.54,RU,1683783724
204,san andres,12.5847,-81.7006,29.01,74,20,4.12,CO,1683783724
205,okhotsk,59.3833,143.3,3.01,79,31,4.79,RU,1683783724
206,holdenville,35.0804,-96.3992,19.5,98,100,2.63,US,1683783724
207,lyantor,61.6195,72.1555,3.45,55,28,7.24,RU,1683783724
208,cabedelo,-6.9811,-34.8339,25.37,80,27,3.78,BR,1683783651
209,bedele,8.456,36.353,18.8,78,90,1.05,ET,1683783724
210,erenhot,43.6475,111.9767,16.89,27,96,9.51,CN,1683783725
211,ciudad lazaro cardenas,17.9583,-102.2,27.07,74,72,1.03,MX,1683783725
212,leava,-14.3,-178.1667,28.47,74,15,4.73,WF,1683783725
213,amethi,26.15,81.8167,39.04,6,0,4.53,IN,1683783725
214,marakkanam,12.2,79.95,32.13,59,100,1.35,IN,1683783725
215,kralendijk,12.15,-68.2667,26.99,78,20,6.17,BQ,1683783725
216,daru,-9.0763,143.2092,25.67,93,100,7.24,PG,1683783725
217,tsiombe,-25.3,45.4833,25.76,61,99,2.65,MG,1683783726
218,saldanha,-33.0117,17.9442,15.03,84,97,2.42,ZA,1683783726
219,la punta,-33.1837,-66.3127,14.69,62,100,2.55,AR,1683783726
220,machico,32.7,-16.7667,19.35,59,20,8.75,PT,1683783726
221,namibe,-15.1961,12.1522,23.34,71,4,1.67,AO,1683783726
222,carnarvon,-24.8667,113.6333,25.23,49,0,5.9,AU,1683783726
223,myeik,12.4333,98.6,32.37,56,87,3.34,MM,1683783727
224,lazaro cardenas,17.9583,-102.2,27.07,74,72,1.03,MX,1683783727
225,maisi,43.0395,41.2621,10.08,94,100,0.45,GE,1683783727
226,galle,6.0367,80.217,28.68,78,99,5.36,LK,1683783483
227,liwale,-9.7667,37.9333,23.65,70,22,1.74,TZ,1683783727
228,rolla,37.9514,-91.7713,18.17,87,0,3.6,US,1683783727
229,kasongo-lunda,-6.4667,16.8167,20.75,72,6,0.87,CD,1683783728
230,baotou,40.6522,109.8222,20.58,17,36,8.03,CN,1683783728
231,lethem,3.3803,-59.7968,22.95,92,100,0.46,GY,1683783728
232,tual,-5.6667,132.75,27.21,82,100,7.36,ID,1683783728
233,wynyard,-41.0,145.7167,12.77,69,89,2.83,AU,1683783728
234,upata,8.0086,-62.3989,24.0,86,100,1.38,VE,1683783728
235,cockburn town,21.4612,-71.1419,26.81,82,53,4.81,TC,1683783729
236,porto novo,6.4965,2.6036,27.6,82,95,3.29,BJ,1683783629
237,mesyagutovo,55.5303,58.2528,13.39,36,91,2.35,RU,1683783729
238,soldanesti,47.8153,28.7967,11.19,63,3,2.98,MD,1683783729
239,yarmouth,41.7057,-70.2286,14.03,75,0,4.63,US,1683783729
240,botou,38.0667,116.5667,28.9,16,99,4.38,CN,1683783729
241,arraial do cabo,-22.9661,-42.0278,22.51,79,100,4.68,BR,1683783729
242,vilyuchinsk,52.9306,158.4028,5.15,93,100,5.87,RU,1683783729
243,chui,-33.6971,-53.4616,11.79,70,81,3.86,UY,1683783730
244,delacombe,-37.5891,143.8147,13.74,74,2,2.24,AU,1683783730
245,rikaze,29.25,88.8833,12.85,10,20,2.83,CN,1683783730
246,potosi,-19.5836,-65.7531,4.8,71,89,1.17,BO,1683783730
247,bhamo,24.2667,97.2333,35.87,40,27,5.51,MM,1683783730
248,cabo san lucas,22.8909,-109.9124,23.67,56,18,6.04,MX,1683783693
249,castillos,-34.1667,-53.8333,12.18,70,91,4.32,UY,1683783730
250,lorengau,-2.0226,147.2712,28.73,78,53,0.43,PG,1683783731
251,al jawf,29.5,38.75,28.24,14,42,9.0,SA,1683783731
252,pelabuhanratu,-6.9875,106.5514,29.87,76,97,2.7,ID,1683783731
253,east grand forks,47.93,-97.0245,19.13,80,0,3.6,US,1683783731
254,eyl,7.9803,49.8164,31.43,53,93,7.63,SO,1683783731
255,hastings,50.8552,0.5729,10.55,42,52,3.18,GB,1683783731
256,minas de marcona,-15.2119,-75.1103,14.15,89,45,4.49,PE,1683783731
257,ain sukhna,29.6002,32.3167,26.64,35,41,2.09,EG,1683783732
258,george town,5.4112,100.3354,33.96,66,20,3.6,MY,1683783600
259,hirara,24.8,125.2833,26.15,57,40,4.63,JP,1683783732
260,touros,-5.1989,-35.4608,24.89,82,8,4.11,BR,1683783732
261,kimbe,-5.5502,150.1429,28.42,85,85,1.0,PG,1683783732
262,utrik,11.2278,169.8474,27.22,82,96,7.3,MH,1683783732
263,thinadhoo,0.5333,72.9333,28.29,78,78,5.85,MV,1683783732
264,cobija,-11.0267,-68.7692,21.03,88,100,1.27,BO,1683783733
265,selkirk,50.1436,-96.8845,13.08,83,35,1.17,CA,1683783733
266,harper,4.375,-7.7169,26.43,85,91,2.09,LR,1683783733
267,hasaki,35.7333,140.8333,19.56,43,43,5.26,JP,1683783733
268,villa bruzual,9.3328,-69.1208,24.8,77,100,1.08,VE,1683783733
269,shenjiamen,29.9576,122.298,16.95,69,98,3.1,CN,1683783733
270,abalak,58.1286,68.5944,9.15,68,35,5.03,RU,1683783733
271,mossel bay,-34.1831,22.146,15.96,81,85,3.36,ZA,1683783734
272,fort st. john,56.2499,-120.8529,12.94,41,40,4.12,CA,1683783574
273,as sulayyil,20.4607,45.5779,32.14,11,6,7.42,SA,1683783734
274,north platte,41.1239,-100.7654,17.94,74,100,4.12,US,1683783734
275,san fernando de monte cristi,19.8667,-71.65,25.21,78,44,0.96,DO,1683783734
276,cidreira,-30.1811,-50.2056,13.98,82,17,4.7,BR,1683783734
277,lake saint louis,38.7976,-90.7857,22.28,66,0,2.06,US,1683783734
278,nishinoomote,30.7333,131.0,22.31,60,75,2.57,JP,1683783735
279,sao vicente,-23.9631,-46.3919,22.1,26,99,0.89,BR,1683783735
280,horta,38.5333,-28.6333,15.57,83,40,5.36,PT,1683783735
281,saipan,15.1355,145.701,29.8,100,10,4.47,MP,1683783593
282,val-d'or,48.1002,-77.7828,10.05,66,0,0.0,CA,1683783735
283,fallon,39.4735,-118.7774,13.29,41,40,3.09,US,1683783562
284,mount gambier,-37.8333,140.7667,16.97,52,20,4.05,AU,1683783735
285,shimoda,34.6667,138.95,20.2,74,54,3.25,JP,1683783620
286,alvaraes,-3.2208,-64.8042,22.29,100,98,0.74,BR,1683783736
287,flin flon,54.7682,-101.865,10.6,83,72,2.38,CA,1683783657
288,dzuunharaa,48.8523,106.4579,8.99,55,89,7.65,MN,1683783736
289,malabar,-33.9667,151.25,22.31,66,20,4.63,AU,1683783736
290,choibalsan,48.0667,114.5,20.8,22,100,5.26,MN,1683783736
291,jawf al maqbabah,13.8378,45.8349,26.38,57,53,0.93,YE,1683783736
292,obihiro,42.9172,143.2044,13.67,48,37,5.73,JP,1683783736
293,newman,37.3138,-121.0208,15.16,50,0,1.87,US,1683783737
294,dapa,9.7594,126.0531,29.66,68,77,1.97,PH,1683783737
295,severo-yeniseyskiy,60.3725,93.0408,5.47,49,100,5.82,RU,1683783737
296,bibiani,6.4635,-2.3194,21.77,97,100,0.61,GH,1683783737
297,midvagur,62.0511,-7.1939,8.46,93,100,0.51,FO,1683783737
298,coquimbo,-29.9533,-71.3436,12.85,94,100,1.54,CL,1683783737
299,igarka,67.4667,86.5833,-6.86,75,48,8.72,RU,1683783737
300,bankim,6.083,11.4905,20.97,96,99,0.48,CM,1683783738
301,gamay,12.3854,125.2979,28.63,81,94,3.21,PH,1683783738
302,sassandra,4.95,-6.0833,25.2,90,100,1.94,CI,1683783738
303,bihpuriagaon,27.0333,93.9,31.08,32,0,3.15,IN,1683783738
304,emmett,43.8735,-116.4993,14.35,64,0,1.66,US,1683783738
305,okha,53.5739,142.9478,2.17,79,46,3.15,RU,1683783738
306,el soberbio,-27.2985,-54.1988,13.5,96,0,0.27,AR,1683783738
307,pimentel,-6.8367,-79.9342,24.16,78,100,5.14,PE,1683783739
308,chernyshevskiy,63.0128,112.4714,1.19,56,68,3.7,RU,1683783739
309,khalkhal,37.6189,48.5258,16.56,46,8,2.4,IR,1683783739
310,kura,11.7697,8.4303,28.0,53,100,5.06,NG,1683783739
311,boguchany,58.3814,97.4531,11.15,29,52,3.19,RU,1683783739
312,hithadhoo,-0.6,73.0833,28.59,76,99,6.02,MV,1683783739
313,baoro,5.6667,15.9667,21.78,90,57,1.71,CF,1683783740
314,rio preto da eva,-2.6994,-59.6997,22.72,99,100,1.74,BR,1683783740
315,santa rosalia,27.3167,-112.2833,16.71,38,66,4.39,MX,1683783740
316,wanaraja,-7.1749,107.9808,26.43,81,80,1.84,ID,1683783740
317,revda,56.801,59.9303,13.36,43,94,2.02,RU,1683783740
318,page,36.9147,-111.4558,17.88,29,0,3.6,US,1683783590
319,praia da vitoria,38.7333,-27.0667,15.98,100,75,6.87,PT,1683783740
320,tobelo,1.7284,128.0095,28.94,77,72,0.86,ID,1683783741
321,coldwater,41.9403,-85.0005,13.41,76,0,0.0,US,1683783741
322,antsohihy,-14.8796,47.9875,27.85,58,7,2.28,MG,1683783741
323,alcantara,-2.4089,-44.4147,27.11,91,50,2.7,BR,1683783741
324,zhumysker,49.3333,49.4,13.18,78,100,2.26,KZ,1683783741
325,balabac,7.9868,117.0645,30.37,66,78,3.7,PH,1683783741
326,afaahiti,-17.75,-149.2833,26.93,85,100,14.51,PF,1683783742
327,betio village,1.358,172.9211,30.02,79,99,5.66,KI,1683783742
328,akdepe,42.0551,59.3788,23.05,27,100,6.16,TM,1683783742
329,valparaiso,-33.0393,-71.6273,15.0,66,0,2.06,CL,1683783742
330,makhambet,47.6667,51.5833,21.58,41,79,3.85,KZ,1683783742
331,huaidian,33.4333,115.0333,20.76,40,99,1.87,CN,1683783743
332,palmer,42.1584,-72.3287,14.23,75,0,0.0,US,1683783743
333,papao,-17.75,-149.55,27.82,88,100,16.22,PF,1683783743
334,ulsteinvik,62.3432,5.8487,10.5,92,99,1.92,NO,1683783743
335,lutsk,50.7593,25.3424,11.23,56,1,0.45,UA,1683783743
336,ago-are,8.5,3.4167,23.91,93,94,2.01,NG,1683783744
337,anadyr,64.75,177.4833,5.28,60,0,1.0,RU,1683783744
338,lisala,2.15,21.5167,23.89,79,71,1.01,CD,1683783744
339,las trojes,14.0667,-85.9833,20.21,86,22,0.69,HN,1683783744
340,egilsstadir,65.2653,-14.3948,6.95,81,75,0.0,IS,1683783744
341,martapura,-3.4167,114.85,33.05,62,40,3.6,ID,1683783745
342,ouahigouya,13.5828,-2.4216,28.39,30,100,3.79,BF,1683783745
343,valka,57.7752,26.0101,15.17,36,79,1.18,LV,1683783745
344,madanapalle,13.55,78.5,32.09,46,82,3.46,IN,1683783745
345,nova sintra,14.8667,-24.7167,19.54,84,19,8.06,CV,1683783745
346,san miguel,13.4833,-88.1833,25.12,82,83,0.4,SV,1683783745
347,gadzhiyevo,69.2551,33.3362,2.31,100,100,1.88,RU,1683783745
348,juan griego,11.0817,-63.9655,26.07,89,72,6.17,VE,1683783746
349,takab,36.4009,47.1133,16.19,34,79,1.31,IR,1683783746
350,mgandu,-5.95,34.1333,18.7,73,31,4.47,TZ,1683783746
351,ialibu,-6.2821,143.9935,18.42,92,99,0.76,PG,1683783746
352,bayganin,48.6947,55.8742,17.73,50,46,2.93,KZ,1683783746
353,gurupa,-1.405,-51.64,23.67,98,100,1.31,BR,1683783746
354,codrington,-38.2667,141.9667,17.16,55,5,5.36,AU,1683783746
355,sabha,27.0377,14.4283,17.09,56,0,5.92,LY,1683783747
356,fuyang,32.9,115.8167,22.19,37,89,2.12,CN,1683783747
357,kuta,-8.7233,115.1723,30.0,79,20,10.8,ID,1683783747
358,pop,40.8736,71.1089,29.27,12,48,2.73,UZ,1683783747
359,santa cruz,-17.8,-63.1667,18.7,88,40,3.09,BO,1683783747
360,vuktyl,63.8567,57.3094,0.9,80,80,1.1,RU,1683783747
361,syktyvkar,61.6764,50.8099,8.85,53,20,1.0,RU,1683783747
362,jumilla,38.4792,-1.325,15.29,82,72,2.1,ES,1683783748
363,pionerskiy,54.9508,20.2275,11.91,70,12,5.42,RU,1683783748
364,kununurra,-15.7667,128.7333,28.99,20,50,4.12,AU,1683783461
365,omdurman,15.6445,32.4777,34.21,7,51,4.27,SD,1683783748
366,sebastopol,44.6,33.5333,11.77,54,0,3.07,UA,1683783748
367,llallagua,-18.4167,-66.6333,4.72,74,100,1.3,BO,1683783748
368,saint-joseph,-21.3667,55.6167,26.93,68,72,5.79,RE,1683783748
369,flying fish cove,-10.4217,105.6791,27.82,89,100,8.23,CX,1683783749
370,maitum,6.0392,124.4986,31.08,69,100,2.75,PH,1683783749
371,parapat,2.663,98.9349,26.54,61,74,2.86,ID,1683783749
372,odda,60.0691,6.5457,10.98,88,100,2.17,NO,1683783749
373,mersa matruh,31.3525,27.2453,19.11,88,40,4.12,EG,1683783749
374,kerikeri,-35.2268,173.9474,9.39,91,19,7.13,NZ,1683783750
375,kabwe,-14.4469,28.4464,16.83,62,5,3.14,ZM,1683783750
376,todos santos,23.45,-110.2167,19.25,73,52,2.11,MX,1683783750
377,alice springs,-23.7,133.8833,20.75,21,0,3.09,AU,1683783497
378,kuqa,41.7278,82.9364,25.65,8,15,6.37,CN,1683783750
379,paita,-5.0892,-81.1144,23.8,85,8,4.37,PE,1683783750
380,london,51.5085,-0.1257,10.76,94,47,2.06,GB,1683783547
381,howard springs,-12.497,131.047,32.12,45,96,4.05,AU,1683783750
382,berdigestyakh,62.0989,126.6992,1.75,60,100,4.14,RU,1683783751
383,muisne,0.6,-80.0333,25.56,89,90,0.99,EC,1683783751
384,baikonur,45.6167,63.3167,29.77,19,100,2.3,KZ,1683783751
385,kudahuvadhoo,2.6708,72.8944,28.56,76,91,6.43,MV,1683783751
386,broome,42.2506,-75.833,10.92,69,28,0.89,US,1683783751
387,desaguadero,-16.5656,-69.0417,4.54,83,100,2.69,PE,1683783751
388,mejit,10.2753,170.8646,27.03,84,98,7.9,MH,1683783752
389,nova vicosa,-17.8919,-39.3719,22.81,83,37,0.63,BR,1683783646
390,thunder bay,48.4001,-89.3168,5.99,93,0,4.63,CA,1683783752
391,tura,25.5198,90.2201,35.68,29,0,3.26,IN,1683783752
392,corbelia,-24.7989,-53.3067,10.73,72,15,3.62,BR,1683783752
393,kotlas,61.2611,46.6556,10.8,65,25,1.85,RU,1683783752
394,weno,7.4515,151.8468,28.5,74,100,3.24,FM,1683783752
395,onguday,50.75,86.15,20.51,34,98,4.14,RU,1683783753
396,bodo,67.28,14.405,8.58,92,75,3.13,NO,1683783753
397,minot air force base,48.4209,-101.3391,16.05,68,75,4.12,US,1683783753
398,umm kaddadah,13.6017,26.6876,31.03,37,63,5.73,SD,1683783753
399,male,4.1748,73.5089,29.97,79,75,6.69,MV,1683783753
400,aberdeen,57.1437,-2.0981,8.44,100,59,2.06,GB,1683783753
401,heber city,40.5069,-111.4132,9.66,86,67,1.0,US,1683783676
402,kapit,2.0167,112.9333,34.94,46,65,1.26,MY,1683783753
403,morehead city,34.7229,-76.726,20.56,86,0,2.06,US,1683783614
404,mouila,-1.8685,11.0559,23.59,96,62,0.57,GA,1683783754
405,waqqas,32.5427,35.6053,27.0,19,35,1.66,JO,1683783754
406,yuzhno-kurilsk,44.0306,145.8556,2.72,84,100,8.84,RU,1683783754
407,sitka,57.0531,-135.33,10.94,62,100,8.75,US,1683783754
408,ventspils,57.3894,21.5606,10.96,62,0,1.54,LV,1683783754
409,altamont,42.2068,-121.7372,9.94,71,20,2.57,US,1683783754
410,port-vila,-17.7338,168.3219,25.78,83,100,5.14,VU,1683783755
411,tegueste,28.5167,-16.3167,16.66,87,20,5.14,ES,1683783755
412,kapa'a,22.0752,-159.319,23.99,85,100,5.66,US,1683783755
413,paris,48.8534,2.3488,11.43,91,100,3.6,FR,1683783044
414,collie,-33.3667,116.15,16.9,42,32,2.27,AU,1683783755
415,velyka oleksandrivka,47.3197,33.3037,11.69,55,12,3.26,UA,1683783755
416,kingston,17.997,-76.7936,27.53,82,20,6.69,JM,1683783524
417,laayoune,27.1622,-13.2032,20.19,100,100,9.26,EH,1683783756
418,tofol,5.3248,163.0078,29.04,74,100,3.17,FM,1683783756
419,tefe,-3.3542,-64.7114,22.47,100,99,0.78,BR,1683783756
420,emerald,-23.5333,148.1667,20.75,64,98,6.44,AU,1683783756
421,tacuarembo,-31.7333,-55.9833,6.59,92,26,2.03,UY,1683783756
422,chicoana,-25.1009,-65.5331,12.81,76,1,1.25,AR,1683783756
423,deschutes river woods,43.9915,-121.3584,9.06,76,40,0.45,US,1683783756
424,haiku-pauwela,20.9219,-156.3051,22.25,86,40,7.72,US,1683783756
425,volnovakha,47.601,37.4967,7.49,74,44,4.78,UA,1683783757
426,florida,28.7505,-82.5001,22.26,89,0,1.54,US,1683783757
427,sinan,34.8262,126.1086,23.06,78,100,2.93,KR,1683783757
428,gargalianoi,37.0667,21.6333,16.86,85,100,0.82,GR,1683783757
429,khanty-mansiysk,61.0042,69.0019,5.06,52,40,4.02,RU,1683783621
430,regina,50.4501,-104.6178,12.99,58,20,1.54,CA,1683783242
431,richards bay,-28.783,32.0377,19.82,82,0,3.25,ZA,1683783636
432,changji,44.0167,87.3167,28.44,11,0,4.0,CN,1683783758
433,saint-philippe,-21.3585,55.7679,26.77,79,90,3.56,RE,1683783758
434,mahenge,-8.6833,36.7167,20.12,74,27,0.9,TZ,1683783758
435,tacna,-18.0056,-70.2483,15.5,91,51,0.98,PE,1683783758
436,ipojuca,-8.3989,-35.0639,27.95,88,15,0.58,BR,1683783758
437,freetown,8.484,-13.2299,25.84,83,75,4.63,SL,1683783758
438,swakopmund,-22.6833,14.5333,13.32,91,6,0.45,NA,1683783758
439,ernee,48.2976,-0.9314,9.75,96,92,1.91,FR,1683783759
440,kaduy,59.2,37.15,14.84,44,23,1.41,RU,1683783759
441,lihue,21.9789,-159.3672,23.58,87,100,5.66,US,1683783709
442,eraan,9.0629,117.7016,30.11,70,89,2.3,PH,1683783759
443,togur,58.3631,82.8265,13.1,28,100,3.36,RU,1683783759
444,tapes,-30.6733,-51.3958,10.41,83,16,2.1,BR,1683783759
445,merizo village,13.2658,144.6691,32.31,92,4,3.12,GU,1683783759
446,dwarka,22.2394,68.9678,28.86,77,2,5.14,IN,1683783760
447,usinsk,65.9939,57.5281,-0.56,74,100,1.63,RU,1683783760
448,smithers,54.7804,-127.1743,14.18,51,100,0.0,CA,1683783760
449,acaponeta,22.4964,-105.3594,20.95,63,0,0.4,MX,1683783760
450,noumea,-22.2763,166.4572,24.44,99,100,6.66,NC,1683783711
451,forio,40.7342,13.8646,18.01,90,2,2.24,IT,1683783760
452,kourou,5.1552,-52.6478,24.03,96,100,0.91,GF,1683783760
453,bamboo flat,11.7,92.7167,31.05,70,75,4.12,IN,1683783761
454,usta muhammad,28.1794,68.0445,41.51,6,29,0.19,PK,1683783761
455,wesley,15.5667,-61.3167,26.3,76,100,8.25,DM,1683783761
456,carutapera,-1.195,-46.02,24.18,94,75,1.6,BR,1683783761
457,ambovombe,-25.1667,46.0833,24.68,64,82,1.45,MG,1683783761
458,san jose del guaviare,2.5729,-72.6459,22.07,96,100,1.36,CO,1683783761
459,tingi,-11.3,35.0333,19.01,68,75,1.17,TZ,1683783761
460,yengema,8.7167,-11.1667,22.6,88,100,1.05,SL,1683783762
461,frontera,26.9333,-101.45,27.4,59,0,1.79,MX,1683783762
462,at taj,24.2049,23.2857,22.7,39,0,6.31,LY,1683783762
463,serhiyivka,46.0272,30.3768,11.26,65,13,1.99,UA,1683783762
464,bafra,41.5678,35.9069,10.05,93,100,1.12,TR,1683783700
465,vite,17.2833,74.55,34.69,30,78,1.41,IN,1683783762
466,kolosovka,56.4678,73.611,14.17,33,42,3.23,RU,1683783762
467,san rafael,-34.6177,-68.3301,14.85,47,100,0.38,AR,1683783763
468,ormara,25.2088,64.6357,29.39,69,0,6.92,PK,1683783763
469,mournies,35.4764,24.0092,18.79,82,75,2.06,GR,1683783763
470,tot'ma,59.9747,42.7642,15.26,49,16,0.72,RU,1683783763
471,lomo de arico,28.1667,-16.4833,19.8,75,0,5.14,ES,1683783763
472,klaksvik,62.2266,-6.589,8.51,85,20,3.28,FO,1683783763
473,east london,-33.0153,27.9116,18.52,48,0,2.06,ZA,1683783763
474,kingsland,30.8,-81.6898,24.42,93,70,1.41,US,1683783764
475,najafabad,32.6344,51.3668,16.3,20,15,3.75,IR,1683783764
476,port saint john's,-31.6229,29.5448,19.6,43,4,2.97,ZA,1683783764
477,arkhipo-osipovka,44.37,38.52,12.21,54,1,2.95,RU,1683783764
478,kabala,9.5833,-11.55,24.23,77,100,0.39,SL,1683783764
479,tambura,5.6,27.4667,24.15,77,77,2.6,SS,1683783764
480,ziniare,12.5822,-1.2983,29.72,43,74,4.52,BF,1683783764
481,sola,-13.8833,167.55,27.91,69,9,8.23,VU,1683783765
482,pizarro,4.9533,-77.366,24.98,89,100,1.38,CO,1683783765
483,koulamoutou,-1.1303,12.4736,21.82,91,61,0.12,GA,1683783765
484,cafayate,-26.073,-65.9761,13.18,76,0,0.38,AR,1683783765
485,malmberget,67.1753,20.6549,7.31,71,0,1.54,SE,1683783766
486,bikenibeu village,1.3673,173.1241,29.98,74,40,4.12,KI,1683783766
487,magnaga,7.1694,125.8931,31.99,68,99,1.69,PH,1683783766
488,toliara,-23.35,43.6667,24.88,65,100,1.95,MG,1683783766
489,baruun-urt,46.6806,113.2792,19.77,15,100,6.01,MN,1683783766
490,vypasne,45.8756,34.1773,11.72,59,7,3.53,UA,1683783767
491,potoci,43.4086,17.8786,14.73,93,100,0.51,BA,1683783767
492,curup,-3.4667,102.5333,31.04,47,29,1.82,ID,1683783767
493,una,20.8167,71.0333,42.22,13,4,3.32,IN,1683783767
494,sisimiut,66.9395,-53.6735,-3.01,76,75,6.11,GL,1683783767
495,dadukou,26.5479,101.7054,30.84,30,39,2.08,CN,1683783767
496,verkhnevilyuysk,63.4453,120.3167,4.42,39,100,2.03,RU,1683783768
497,jonquiere,48.4165,-71.2488,10.67,56,50,0.51,CA,1683783678
498,nikol'sk,53.7189,46.0712,13.09,51,98,4.9,RU,1683783768
499,labrador city,52.9463,-66.9114,-4.05,80,40,1.54,CA,1683783768
500,trenggalek,-8.05,111.7167,28.89,82,64,1.86,ID,1683783768
501,margate,51.3813,1.3862,9.93,90,82,5.21,GB,1683783768
502,saint marys,30.7305,-81.5465,24.47,91,100,4.12,US,1683783516
503,korla,41.7597,86.1469,23.01,16,1,4.16,CN,1683783769
504,hami,42.8,93.45,26.57,10,9,6.1,CN,1683783769
505,darab,28.7519,54.5444,30.74,14,1,2.86,IR,1683783769
506,pirallahi,40.4723,50.333,20.08,64,2,5.53,AZ,1683783769
507,itoman,26.1247,127.6694,26.21,52,20,6.17,JP,1683783605
508,ballina,-28.8667,153.5667,19.45,91,30,3.21,AU,1683783769
509,lompoc,34.6391,-120.4579,12.1,83,100,6.26,US,1683783769
510,padangsidempuan,1.3667,99.2667,30.16,70,72,2.32,ID,1683783769
511,oltinko'l,40.8011,72.1634,31.83,12,29,1.73,UZ,1683783770
512,dumingag,8.1692,123.3506,32.66,60,100,0.33,PH,1683783770
513,holualoa,19.6228,-155.9522,23.91,84,100,3.09,US,1683783770
514,san antonio de pale,-1.4014,5.6325,26.99,78,100,4.69,GQ,1683783770
515,mahdia,35.5047,11.0622,18.97,63,46,4.15,TN,1683783770
516,inhambane,-23.865,35.3833,21.99,88,75,0.0,MZ,1683783770
517,polyarnyy,69.1989,33.4478,2.82,99,100,1.9,RU,1683783664
518,aguililla,18.7333,-102.7333,21.69,75,3,1.8,MX,1683783771
519,pacific grove,36.6177,-121.9166,12.03,82,75,2.57,US,1683783771
520,crane,31.3974,-102.3501,26.91,24,0,11.42,US,1683783771
521,bryne,58.7354,5.6477,10.13,94,100,4.63,NO,1683783771
522,antsiranana,-12.2787,49.2917,24.42,88,75,3.09,MG,1683783771
523,dolinsk,47.35,142.8,5.75,66,90,3.06,RU,1683783771
524,bontang,0.1333,117.5,29.46,67,30,3.07,ID,1683783771
525,nantucket,41.2835,-70.0995,13.33,79,0,7.72,US,1683783765
526,wanning,18.8003,110.3967,29.27,75,70,3.86,CN,1683783772
527,mount isa,-20.7333,139.5,26.87,18,0,2.57,AU,1683783772
528,shiguai,40.7058,110.2856,18.09,20,45,9.16,CN,1683783772
529,campos belos,-13.0367,-46.7717,23.43,52,71,1.47,BR,1683783772
530,goksun,38.021,36.4973,16.55,39,35,1.68,TR,1683783772
531,pandan,14.0453,124.1694,29.16,69,100,4.47,PH,1683783772
532,telemaco borba,-24.3239,-50.6156,12.06,99,71,1.09,BR,1683783772
533,saint-pierre,-21.3393,55.4781,27.54,65,0,9.26,RE,1683783773
534,jindabyne,-36.4167,148.6333,11.52,65,0,2.0,AU,1683783773
535,queensbury,53.7667,-1.9167,9.77,93,90,2.54,GB,1683783773
536,port moresby,-9.4431,147.1797,30.68,70,40,5.14,PG,1683783773
537,assab,13.0092,42.7394,29.87,72,89,6.66,ER,1683783773
538,puerto colombia,10.9878,-74.9547,27.05,89,98,3.83,CO,1683783773
539,muroto-misakicho,33.2833,134.15,20.0,55,64,5.83,JP,1683783773
540,tsagan aman,47.5639,46.7218,11.76,90,100,1.89,RU,1683783774
541,newcastle,-32.9272,151.7765,20.55,72,20,4.12,AU,1683783745
542,tulu bolo,8.6667,38.2167,18.98,67,84,1.24,ET,1683783774
543,atakpame,7.5333,1.1333,22.31,89,94,1.74,TG,1683783774
544,jilib,0.4883,42.7854,29.51,64,91,3.34,SO,1683783774
545,ardakan,32.31,54.0175,25.95,25,49,0.56,IR,1683783774
546,chibougamau,49.9168,-74.3659,8.79,57,0,2.57,CA,1683783624
547,zaraza,9.3503,-65.3245,24.52,81,60,1.78,VE,1683783775
548,elverum,60.8819,11.5623,8.19,70,11,0.85,NO,1683783775
549,kirensk,57.7853,108.1119,8.4,37,97,2.8,RU,1683783775
550,tetiiv,49.3767,29.6647,9.97,63,19,2.56,UA,1683783775
551,akureyri,65.6835,-18.0878,4.96,93,100,1.54,IS,1683783775
552,idri,27.5,13.2667,18.2,41,0,4.57,LY,1683783775
553,lerwick,60.1545,-1.1494,8.0,91,22,2.15,GB,1683783775
554,port blair,11.6667,92.75,31.02,70,75,4.12,IN,1683783775
555,pokachi,61.7198,75.3683,3.02,59,86,6.45,RU,1683783776
556,al bawiti,28.3492,28.8659,26.93,16,22,7.04,EG,1683783776
557,mirny,62.5353,113.9611,2.91,34,80,4.92,RU,1683783776
558,petaluma,38.2324,-122.6367,12.41,80,100,3.09,US,1683783776
559,morondava,-20.2833,44.2833,25.32,71,88,2.57,MG,1683783776
